City,Lat,Lng,Max Temp,Humidity,Cloudiness,Wind Speed,Country,Date
nelson bay,-32.7167,152.15,21.0,100,40,4.12,AU,1612639193
rikitea,-23.1203,-134.9692,25.4,73,100,5.2,PF,1612639212
brae,60.3964,-1.353,1.0,51,100,9.26,GB,1612639213
vokhtoga,58.8147,41.0461,-19.25,91,100,4.41,RU,1612639215
hobart,-42.8794,147.3294,14.44,77,93,1.54,AU,1612638922
avarua,-21.2078,-159.775,29.0,74,20,4.63,CK,1612639134
qaanaaq,77.484,-69.3632,-11.02,89,100,3.41,GL,1612639154
tessalit,20.1986,1.0114,25.61,16,94,3.95,ML,1612639415
mataura,-46.1927,168.8643,11.31,88,0,0.87,NZ,1612639416
bluff,-46.6,168.3333,12.05,84,10,2.06,NZ,1612639418
ushuaia,-54.8,-68.3,13.0,67,20,9.77,AR,1612639256
carnarvon,-24.8667,113.6333,27.0,100,40,5.14,AU,1612639392
tiksi,71.6872,128.8694,-31.92,86,100,2.67,RU,1612639166
yellowknife,62.456,-114.3525,-38.89,67,1,1.54,CA,1612639422
punta arenas,-53.15,-70.9167,12.0,54,40,4.63,CL,1612639423
san luis,-33.295,-66.3356,31.72,22,0,3.47,AR,1612639425
atuona,-9.8,-139.0333,26.73,78,100,9.91,PF,1612639426
vaini,-21.2,-175.2,25.0,83,75,2.57,TO,1612639145
port alfred,-33.5906,26.891,22.22,92,82,0.45,ZA,1612639428
zatoka,46.0725,30.4654,-3.0,86,90,3.0,UA,1612639429
dikson,73.5069,80.5464,-34.2,86,85,4.62,RU,1612639431
chokurdakh,70.6333,147.9167,-28.98,87,61,3.79,RU,1612639432
marsabit,2.3284,37.9899,21.95,57,0,3.24,KE,1612639433
torbay,47.6666,-52.7314,1.67,93,90,7.72,CA,1612639435
bambous virieux,-20.3428,57.7575,26.67,83,20,1.54,MU,1612639436
tabou,4.423,-7.3528,26.39,87,16,3.55,CI,1612639437
vao,-22.6667,167.4833,24.99,88,0,3.57,NC,1612639438
ancud,-41.8697,-73.8203,25.0,50,0,4.63,CL,1612639439
buala,-8.145,159.5921,26.9,82,100,5.2,SB,1612639440
albany,42.6001,-73.9662,3.0,35,75,6.17,US,1612639203
jamestown,42.097,-79.2353,-5.0,53,1,10.29,US,1612639222
busselton,-33.65,115.3333,15.0,96,100,0.89,AU,1612639444
castro,-24.7911,-50.0119,24.63,50,0,2.75,BR,1612639446
kodiak,57.79,-152.4072,-3.0,74,1,1.54,US,1612639447
camacha,33.0833,-16.3333,15.0,63,75,7.72,PT,1612639448
provideniya,64.3833,-173.3,-17.51,90,92,2.6,RU,1612639449
thompson,55.7435,-97.8558,-33.0,56,75,7.2,CA,1612639450
new norfolk,-42.7826,147.0587,14.44,69,100,1.34,AU,1612639451
henties bay,-22.116,14.2845,17.78,88,2,1.34,NA,1612639452
pevek,69.7008,170.3133,-18.6,87,100,1.73,RU,1612639453
faanui,-16.4833,-151.75,27.38,70,0,4.61,PF,1612639456
antofagasta,-23.65,-70.4,23.33,60,20,5.66,CL,1612639458
klaksvik,62.2266,-6.589,1.0,64,40,9.77,FO,1612639459
dingle,10.9995,122.6711,23.59,92,77,3.08,PH,1612639460
mar del plata,-38.0023,-57.5575,21.0,64,75,7.2,AR,1612639362
esperance,-33.8667,121.9,15.0,88,90,4.63,AU,1612639463
fort nelson,58.8053,-122.7002,-33.0,75,1,1.03,CA,1612639464
kapaa,22.0752,-159.319,19.0,68,1,3.09,US,1612639447
hithadhoo,-0.6,73.0833,27.47,78,15,6.68,MV,1612639467
clyde river,70.4692,-68.5914,-26.0,76,40,1.82,CA,1612639468
bengkulu,-3.8004,102.2655,24.65,78,99,2.25,ID,1612639469
lere,10.387,8.5726,23.11,21,100,3.42,NG,1612639470
zhezkazgan,47.8043,67.7144,-4.0,95,53,11.46,KZ,1612639471
lorengau,-2.0226,147.2712,27.64,76,91,1.65,PG,1612639472
cape town,-33.9258,18.4232,22.78,78,40,5.14,ZA,1612638623
saskylakh,71.9167,114.0833,-37.08,81,97,2.67,RU,1612639314
kota tinggi,1.7381,103.8999,24.0,88,20,1.03,MY,1612639477
ilulissat,69.2167,-51.1,-6.0,45,40,10.29,GL,1612639478
victoria,22.2855,114.1577,18.89,69,0,1.55,HK,1612639313
svetlogorsk,52.6333,29.7333,-15.65,92,25,3.59,BY,1612639480
nizwa,22.9333,57.5333,13.25,52,0,1.78,OM,1612639481
slave lake,55.2834,-114.769,-29.0,69,1,4.12,CA,1612639482
delano,35.7688,-119.247,14.0,58,1,2.13,US,1612639484
nybro,56.7446,15.9071,-5.0,79,75,3.6,SE,1612639485
longyearbyen,78.2186,15.6401,-6.0,73,75,0.51,SJ,1612639486
hilo,19.7297,-155.09,22.22,53,1,1.54,US,1612639201
bukama,-9.2,25.85,22.66,91,100,0.52,CD,1612639488
barrow,71.2906,-156.7887,-18.0,71,90,3.6,US,1612639489
auki,-8.7676,160.7034,26.04,84,100,4.13,SB,1612639490
parakou,9.3372,2.6303,29.37,17,95,1.51,BJ,1612639491
huntington,38.4193,-82.4452,7.0,49,1,2.06,US,1612639222
guiratinga,-16.3494,-53.7583,29.68,58,53,5.14,BR,1612639493
kruisfontein,-34.0033,24.7314,20.0,86,0,0.45,ZA,1612639495
padang,-0.9492,100.3543,23.0,88,40,1.03,ID,1612639496
hambantota,6.1241,81.1185,23.0,100,20,2.06,LK,1612639498
tocache,-8.1842,-76.5125,27.53,81,100,0.64,PE,1612639499
hermanus,-34.4187,19.2345,20.0,89,92,0.45,ZA,1612639500
sao filipe,14.8961,-24.4956,21.32,74,100,6.65,CV,1612639503
saint-philippe,-21.3585,55.7679,26.0,83,75,1.54,RE,1612639504
alyangula,-13.8483,136.4192,27.0,89,90,5.66,AU,1612639506
arraial do cabo,-22.9661,-42.0278,24.0,94,90,6.69,BR,1612639266
lompoc,34.6391,-120.4579,19.0,42,1,1.43,US,1612639508
okato,-39.2,173.8833,13.89,74,63,1.34,NZ,1612639509
lovozero,68.005,35.0117,-6.51,96,100,7.88,RU,1612639510
khovu-aksy,51.1333,93.6,-15.47,87,1,2.28,RU,1612639511
kutum,14.2,24.6667,13.57,34,0,4.91,SD,1612639513
bilma,18.6853,12.9164,19.97,22,83,3.04,NE,1612639514
mahajanga,-15.7167,46.3167,26.0,94,40,1.44,MG,1612639515
lasa,46.6166,10.7002,4.44,93,75,3.09,IT,1612639517
nanortalik,60.1432,-45.2371,-5.21,78,0,2.2,GL,1612639518
caraquet,47.7941,-64.9386,-1.0,69,93,8.23,CA,1612639519
sitka,57.0531,-135.33,2.0,80,75,3.09,US,1612639520
barabinsk,55.3571,78.357,-0.55,98,100,7.57,RU,1612639522
tuktoyaktuk,69.4541,-133.0374,-27.0,76,90,9.77,CA,1612639524
buraydah,26.326,43.975,10.0,100,75,2.57,SA,1612639239
butaritari,3.0707,172.7902,27.28,80,98,9.72,KI,1612639526
grindavik,63.8424,-22.4338,2.0,64,40,8.23,IS,1612639527
lamar,33.6668,-95.5836,7.22,93,90,5.14,US,1612639528
mitsamiouli,-11.3847,43.2844,27.0,78,20,1.54,KM,1612639529
porto walter,-8.2686,-72.7439,31.14,60,15,1.23,BR,1612639530
kavieng,-2.5744,150.7967,27.57,71,53,1.2,PG,1612639388
manokwari,-0.8667,134.0833,25.63,83,100,2.77,ID,1612639534
marawi,7.9986,124.2928,22.78,93,100,1.79,PH,1612639535
ponta do sol,32.6667,-17.1,12.78,64,8,1.79,PT,1612639536
prince rupert,54.3161,-130.3201,4.0,93,90,1.54,CA,1612639349
laguna,38.421,-121.4238,14.44,66,1,2.06,US,1612639538
sao mateus,-18.7161,-39.8589,30.61,58,100,2.34,BR,1612639539
bone,51.9669,12.1396,-0.56,75,100,4.47,DE,1612639540
lircay,-12.9896,-74.7205,23.0,35,75,3.09,PE,1612639541
mahebourg,-20.4081,57.7,26.0,83,20,1.54,MU,1612639430
cabo san lucas,22.8909,-109.9124,25.56,53,1,5.14,MX,1612639508
port moresby,-9.4431,147.1797,25.0,88,40,3.09,PG,1612639545
palmer,42.1584,-72.3287,5.0,35,40,6.69,US,1612639546
jumla,29.2747,82.1838,-2.74,76,0,2.69,NP,1612639547
aykhal,66.0,111.5,-36.43,81,4,2.59,RU,1612639468
jiwani,25.05,61.7417,20.39,55,0,2.43,PK,1612639444
oranjemund,-28.55,16.4333,18.56,89,6,6.66,NA,1612639550
caravelas,-17.7125,-39.2481,26.17,88,100,4.86,BR,1612639551
khorixas,-20.3667,14.9667,25.08,42,100,5.33,NA,1612639553
makakilo city,21.3469,-158.0858,23.0,56,75,0.3,US,1612639554
panjab,34.388,67.0233,-5.73,83,23,1.0,AF,1612639555
ginda,30.6945,78.4932,3.57,55,0,3.1,IN,1612639556
muzhi,65.3667,64.6667,-34.29,84,100,5.86,RU,1612639557
terrasini,38.146,13.0844,24.0,17,0,5.14,IT,1612639558
husavik,66.0449,-17.3389,-1.0,74,90,0.51,IS,1612639559
yongan,39.6957,113.6871,-6.1,88,0,1.01,CN,1612639560
chiredzi,-21.05,31.6667,24.72,81,50,2.07,ZW,1612639393
kudahuvadhoo,2.6708,72.8944,27.33,76,49,6.2,MV,1612639563
upernavik,72.7868,-56.1549,-6.96,79,100,1.86,GL,1612639564
cururupu,-1.8283,-44.8683,30.39,59,100,3.2,BR,1612639565
chuy,-33.6971,-53.4616,28.5,46,0,4.6,UY,1612639566
hami,42.8,93.45,-0.54,80,0,2.25,CN,1612639567
olinda,-8.0089,-34.8553,28.0,61,40,4.12,BR,1612639553
tiznit,29.5833,-9.5,9.8,77,14,6.8,MA,1612639569
slobozia bradului,45.5,27.05,3.13,87,100,2.23,RO,1612639570
la ronge,55.1001,-105.2842,-31.0,62,51,3.09,CA,1612639571
airai,-8.9266,125.4092,15.73,100,100,1.19,TL,1612639563
tasiilaq,65.6145,-37.6368,0.0,74,75,20.06,GL,1612639574
nadvoitsy,63.8667,34.3167,-8.7,97,99,3.71,RU,1612639575
mehamn,71.0357,27.8492,-3.24,94,100,9.31,NO,1612639576
georgetown,5.4112,100.3354,27.78,89,20,1.54,MY,1612639577
xuchang,34.0167,113.8167,9.0,37,0,3.0,CN,1612639578
sabha,27.0377,14.4283,19.2,24,100,4.04,LY,1612639579
aitape,-3.1374,142.3475,26.2,78,84,2.17,PG,1612639580
eureka,40.8021,-124.1637,10.0,80,0,2.24,US,1612639582
alta floresta,-9.8756,-56.0861,24.0,94,90,7.2,BR,1612639584
namatanai,-3.6667,152.4333,25.97,80,84,0.89,PG,1612639585
nushki,29.5542,66.0215,11.71,31,0,0.97,PK,1612639586
port hawkesbury,45.6169,-61.3485,7.78,61,75,7.2,CA,1612639587
nemuro,43.3236,145.575,-3.27,98,100,4.77,JP,1612639580
kupang,-10.1667,123.5833,26.31,83,100,3.77,ID,1612639558
puerto ayora,-0.7393,-90.3518,28.0,69,75,9.26,EC,1612639590
lazaro cardenas,17.9583,-102.2,27.95,57,0,3.26,MX,1612639593
almaty,43.25,76.95,1.0,80,75,2.0,KZ,1612639595
severo-kurilsk,50.6789,156.125,-6.3,94,100,6.87,RU,1612639539
ous,60.9058,61.5186,-23.22,90,100,5.93,RU,1612639597
birin,26.8865,88.0718,5.93,82,0,1.96,NP,1612639598
yarmouth,41.7057,-70.2286,7.0,45,40,11.32,US,1612639383
port elizabeth,-33.918,25.5701,20.0,94,75,6.69,ZA,1612639550
xining,36.6167,101.7667,-5.04,67,100,0.71,CN,1612639601
wakkanai,45.4094,141.6739,-8.21,96,100,7.7,JP,1612639604
bintulu,3.1667,113.0333,25.0,100,40,0.51,MY,1612639605
cockburn town,21.4612,-71.1419,28.0,65,40,7.2,TC,1612639606
etchoropo,26.7667,-109.6667,22.53,26,0,2.06,MX,1612639607
gdansk,54.3521,18.6464,-10.0,85,75,1.03,PL,1612639225
nabire,-3.3667,135.4833,23.87,85,100,1.74,ID,1612639609
yar-sale,66.8333,70.8333,-35.09,84,100,6.27,RU,1612639610
conde,-7.2597,-34.9075,30.0,62,20,4.63,BR,1612639611
port blair,11.6667,92.75,25.88,76,39,3.57,IN,1612639560
ilebo,-4.3167,20.5833,23.26,86,57,0.51,CD,1612639614
sola,-13.8833,167.55,24.0,100,20,2.47,VU,1612639615
east london,-33.0153,27.9116,23.0,94,20,1.03,ZA,1612639489
grand-santi,4.25,-54.3833,26.51,91,96,1.89,GF,1612639617
cherskiy,68.75,161.3,-22.97,80,0,2.62,RU,1612639487
byron bay,-28.65,153.6167,22.0,88,90,1.03,AU,1612639619
yulara,-25.2406,130.9889,24.0,31,0,4.63,AU,1612639429
puerto madryn,-42.7692,-65.0385,21.01,49,100,9.1,AR,1612639494
leh,34.1667,77.5833,-14.48,53,0,0.89,IN,1612639622
pavino,59.1139,46.1414,-21.28,90,100,4.56,RU,1612639624
biak,-0.9131,122.8766,24.71,78,100,1.42,ID,1612639625
saint-augustin,51.226,-58.6502,0.61,97,100,11.0,CA,1612639626
phan thiet,10.9333,108.1,22.29,81,0,3.05,VN,1612639627
kropotkin,45.4375,40.5756,-1.97,99,100,1.49,RU,1612639628
garowe,8.4054,48.4845,21.22,75,0,7.0,SO,1612639455
chapais,49.7834,-74.8492,-8.0,62,75,5.66,CA,1612639630
martapura,-3.4167,114.85,25.0,100,100,0.51,ID,1612639631
tigil,57.8,158.6667,-5.88,91,100,8.63,RU,1612639632
palu,-0.8917,119.8707,24.26,77,100,1.08,ID,1612639634
zhuanghe,39.7008,122.9911,0.56,44,99,1.79,CN,1612639635
dicabisagan,17.0818,122.4157,24.09,88,77,2.0,PH,1612639636
suraabad,40.8192,49.4687,7.0,87,75,6.17,AZ,1612639637
westport,41.1415,-73.3579,7.0,39,20,5.66,US,1612639624
asau,46.4333,26.4,-1.11,75,100,1.81,RO,1612639639
kenora,49.8167,-94.4337,-26.67,63,75,5.66,CA,1612639455
flin flon,54.7682,-101.865,-32.0,62,1,5.14,CA,1612639641
mogadishu,2.0371,45.3438,25.26,77,0,8.56,SO,1612639642
yangambi,0.8102,24.4336,24.02,56,74,0.62,CD,1612639644
hasaki,35.7333,140.8333,4.0,81,20,2.06,JP,1612639553
rossano,39.5751,16.6349,14.44,92,26,0.93,IT,1612639646
nalvo,16.8096,120.5108,22.03,78,1,1.38,PH,1612639647
yaan,7.3833,8.5667,29.51,14,0,2.18,NG,1612639648
lujan,-34.5703,-59.105,33.33,40,0,4.47,AR,1612639649
saint george,37.1041,-113.5841,13.33,32,1,0.28,US,1612639407
zhigansk,66.7697,123.3711,-40.36,80,89,4.91,RU,1612639653
abha,18.2164,42.5053,11.0,87,0,3.35,SA,1612639654
pamanukan,-6.2842,107.8106,24.43,91,100,2.78,ID,1612639655
luderitz,-26.6481,15.1594,22.39,54,0,12.2,NA,1612639629
lae,-6.7221,146.9847,25.56,83,100,2.4,PG,1612639657
nikolskoye,59.7035,30.7861,-12.0,79,75,7.0,RU,1612639658
bridlington,54.0831,-0.1919,2.78,88,100,6.26,GB,1612639659
doha,25.2867,51.5333,21.0,83,0,4.63,QA,1612639537
tilichiki,60.4667,166.1,-14.45,89,100,6.26,RU,1612639663
savalou,7.9281,1.9756,33.37,23,45,1.24,BJ,1612639664
bodden town,19.2833,-81.25,30.0,70,40,6.69,KY,1612639665
makushino,55.2103,67.2442,0.01,99,100,8.02,RU,1612639666
gambela,8.25,34.5833,29.51,14,96,2.34,ET,1612639667
salinas,36.6777,-121.6555,17.78,58,1,2.06,US,1612639623
gunjur,13.2019,-16.7339,24.0,46,80,4.63,GM,1612639669
narsaq,60.9167,-46.05,1.0,29,20,6.69,GL,1612639670
knysna,-34.0363,23.0471,19.0,94,40,3.6,ZA,1612639671
tahta,26.7693,31.5021,18.0,52,0,3.09,EG,1612639672
rio cauto,20.5603,-76.9161,33.0,40,40,5.66,CU,1612639674
strezhevoy,60.7333,77.5889,0.0,100,90,5.0,RU,1612639582
ribeira grande,38.5167,-28.7,16.0,88,75,9.77,PT,1612639676
hobyo,5.3505,48.5268,25.31,76,0,6.58,SO,1612639677
plettenberg bay,-34.0527,23.3716,19.72,87,0,2.97,ZA,1612639678
bredasdorp,-34.5322,20.0403,20.0,77,100,2.06,ZA,1612639418
vostok,46.4856,135.8833,-24.52,91,100,1.15,RU,1612639680
roald,62.5833,6.1333,-4.0,58,0,2.57,NO,1612639681
anchorage,61.2181,-149.9003,-10.56,92,40,2.57,US,1612639612
tlaixpan,18.9,-97.7333,22.63,28,0,5.52,MX,1612639683
vaitape,-16.5167,-151.75,27.38,70,0,4.63,PF,1612639685
bethel,41.3712,-73.414,6.0,31,40,6.17,US,1612639686
coquimbo,-29.9533,-71.3436,20.0,64,20,6.17,CL,1612639687
tevriz,57.509,72.4042,1.15,92,100,5.42,RU,1612639689
leningradskiy,69.3833,178.4167,-24.95,77,0,3.06,RU,1612639690
gasa,31.5,34.4667,15.56,100,0,0.47,PS,1612639571
muhos,64.808,25.9931,-11.0,85,0,4.12,FI,1612639692
frankfort,-27.2667,28.4833,17.27,89,100,1.17,ZA,1612639693
richards bay,-28.783,32.0377,23.46,83,84,2.8,ZA,1612639689
san cristobal,7.7669,-72.225,32.0,51,40,4.12,VE,1612639554
dobele,56.625,23.2786,-11.0,85,90,1.03,LV,1612639697
coria,39.9879,-6.5377,10.56,88,100,2.18,ES,1612639698
big rapids,43.6981,-85.4837,-9.44,73,90,7.2,US,1612639699
khatanga,71.9667,102.5,-37.75,78,0,3.27,RU,1612639555
champerico,14.3,-91.9167,32.0,48,20,4.12,GT,1612639701
teofilo otoni,-17.8575,-41.5053,23.09,89,100,1.29,BR,1612639702
jacareacanga,-6.2222,-57.7528,29.08,71,98,1.81,BR,1612639704
inuvik,68.3499,-133.7218,-31.0,76,100,1.54,CA,1612639708
rock sound,24.9,-76.2,24.6,83,4,7.28,BS,1612639709
shingu,33.7333,135.9833,6.95,80,0,2.82,JP,1612639710
rodrigues alves,-7.738,-72.6509,32.0,70,75,3.6,BR,1612639711
benjamin hill,30.1667,-111.1,22.78,17,0,1.79,MX,1612639712
lebu,-37.6167,-73.65,17.02,79,63,3.16,CL,1612639713
navolato,24.7672,-107.6944,25.0,56,1,5.14,MX,1612639714
ola,59.5833,151.2833,-13.47,88,100,4.59,RU,1612639715
kem,64.9555,34.5793,-6.4,97,100,6.76,RU,1612639717
bandarbeyla,9.4942,50.8122,24.62,80,13,6.42,SO,1612639718
daru,-9.0763,143.2092,26.29,82,99,5.21,PG,1612639719
san policarpo,12.1791,125.5072,26.5,85,86,7.28,PH,1612639720
myitkyina,25.3833,97.4,14.93,54,0,1.35,MM,1612639722
banavar,13.4136,76.1683,19.52,41,24,3.27,IN,1612639723
dargaville,-35.9333,173.8833,15.73,78,100,1.25,NZ,1612639725
pisco,-13.7,-76.2167,23.33,83,75,4.63,PE,1612639659
margate,51.3813,1.3862,6.11,91,100,3.58,GB,1612639676
xai-xai,-25.0519,33.6442,24.66,82,100,2.91,MZ,1612639728
carberry,49.8689,-99.3602,-28.0,63,1,6.17,CA,1612639729
comodoro rivadavia,-45.8667,-67.5,15.0,72,90,7.72,AR,1612639726
porto novo,6.4965,2.6036,30.0,79,20,5.66,BJ,1612639731
mackay,-21.15,149.2,24.0,94,100,3.17,AU,1612639732
labayug,16.1528,120.5661,22.67,84,5,1.62,PH,1612639733
araucaria,-25.5931,-49.4103,25.0,73,75,6.17,BR,1612639734
yumen,40.2833,97.2,-3.08,73,90,0.45,CN,1612639702
salur,18.5333,83.2167,18.86,58,29,1.02,IN,1612639737
sangar,63.9242,127.4739,-40.9,78,64,2.09,RU,1612639738
meulaboh,4.1363,96.1285,25.2,87,82,1.45,ID,1612639739
clarence town,-32.5833,151.7833,21.0,100,40,4.12,AU,1612639740
enniscorthy,52.5008,-6.5578,5.56,92,46,3.21,IE,1612639741
guerrero negro,27.9769,-114.0611,20.71,40,0,1.87,MX,1612639742
buchanan,5.8808,-10.0467,26.0,89,40,1.54,LR,1612639735
cidreira,-30.1811,-50.2056,24.95,62,13,3.82,BR,1612639565
labuhan,-6.8844,112.2051,25.46,86,0,4.51,ID,1612639745
cascais,38.6979,-9.4215,11.67,76,75,8.75,PT,1612639747
marzuq,14.4,46.4667,15.54,74,0,2.35,YE,1612639748
petropavlovsk-kamchatskiy,53.0452,158.6483,-4.0,63,100,11.0,RU,1612639511
gat,31.61,34.7642,15.56,100,1,0.27,IL,1612639751
san fernando,15.0286,120.6898,24.0,83,40,1.03,PH,1612639753
saveh,35.0213,50.3566,10.4,75,100,1.42,IR,1612639754
alice springs,-23.7,133.8833,22.0,37,69,3.09,AU,1612639755
los llanos de aridane,28.6585,-17.9182,18.0,63,20,4.63,ES,1612639751
mahina,-17.5065,-149.489,25.0,78,75,5.66,PF,1612639758
lagoa,39.05,-27.9833,15.55,88,100,10.36,PT,1612639666
rondonopolis,-16.4708,-54.6356,30.57,53,98,3.92,BR,1612639760
aswan,24.0934,32.907,18.42,29,0,4.45,EG,1612639464
hajiganj,23.2511,90.8592,18.01,47,0,3.22,BD,1612639762
petropavl,54.8753,69.1628,-0.68,99,100,8.25,KZ,1612639764
port hedland,-20.3167,118.5667,25.0,88,40,2.57,AU,1612639765
bay roberts,47.5999,-53.2648,2.22,93,90,7.72,CA,1612639767
geraldton,-28.7667,114.6,21.0,94,75,9.26,AU,1612639769
kiskunmajsa,46.4903,19.74,4.44,100,90,6.17,HU,1612639770
darhan,49.4867,105.9228,-19.06,86,0,2.85,MN,1612639771
evanston,42.0411,-87.6901,-10.0,57,90,4.63,US,1612639568
marfino,55.7028,37.3822,-17.0,78,75,5.0,RU,1612639773
clinton,42.587,-82.9199,-5.56,68,75,5.66,US,1612639717
katsuura,35.1333,140.3,6.0,65,0,2.06,JP,1612639775
nara,34.6851,135.8049,5.56,75,0,1.35,JP,1612639760
jieshi,22.8134,115.8257,18.07,75,0,2.53,CN,1612639779
camana,-16.6228,-72.7111,23.35,70,100,2.66,PE,1612639532
constitucion,-35.3333,-72.4167,18.72,69,31,2.67,CL,1612639781
pangnirtung,66.1451,-65.7125,-10.0,79,75,2.06,CA,1612639662
honningsvag,70.9821,25.9704,-2.02,92,100,11.03,NO,1612639783
oga,46.4631,10.347,6.11,70,75,3.6,IT,1612639784
royan,45.6285,-1.0281,9.0,93,90,5.14,FR,1612639786
norman wells,65.282,-126.8329,-35.0,68,75,3.09,CA,1612639554
dedovichi,57.5517,29.9502,-15.84,94,97,3.39,RU,1612639788
pacific grove,36.6177,-121.9166,17.78,67,1,2.06,US,1612639790
ayan,56.45,138.1667,-20.87,88,100,7.9,RU,1612639732
kirakira,-10.4544,161.9205,26.2,82,100,2.31,SB,1612639508
denpasar,-8.65,115.2167,26.0,89,20,2.06,ID,1612639781
dickinson,29.4608,-95.0513,18.33,77,90,2.06,US,1612639794
sainte-suzanne,-20.9061,55.6089,24.0,94,90,2.57,RE,1612639795
russell,32.3502,-85.1999,8.0,76,90,2.57,US,1612639609
sioux lookout,50.1001,-91.917,-25.0,58,90,6.69,CA,1612639797
georgiyevka,43.0369,74.7114,9.0,43,0,4.0,KZ,1612639798
sambava,-14.2667,50.1667,25.88,78,100,0.46,MG,1612639799
karratha,-20.7377,116.8463,25.72,75,27,4.63,AU,1612639744
vallenar,-28.5708,-70.7581,30.34,26,15,4.2,CL,1612639803
fortuna,40.5982,-124.1573,10.56,93,40,3.28,US,1612639576
rio gallegos,-51.6226,-69.2181,19.0,20,40,5.66,AR,1612639805
chirongui,-12.9319,45.1483,26.0,83,75,2.57,YT,1612639807
luanda,-8.8368,13.2343,27.0,78,100,4.12,AO,1612639718
lannion,48.75,-3.4167,6.0,93,75,2.57,FR,1612639809
kokopo,-4.352,152.2633,24.38,83,1,2.15,PG,1612639811
pahrump,36.2083,-115.9839,15.0,26,0,0.92,US,1612639731
pangai,-19.8,-174.35,25.0,100,90,10.57,TO,1612639813
kalashnikovo,57.2824,35.2262,-19.67,91,100,4.13,RU,1612639814
jeremoabo,-10.075,-38.4808,36.03,20,63,2.84,BR,1612639815
tecoanapa,16.5167,-98.75,28.77,58,31,4.61,MX,1612639816
lavrentiya,65.5833,-171.0,-21.0,79,0,1.41,RU,1612639570
noumea,-22.2763,166.4572,25.0,94,75,1.03,NC,1612639239
guasdualito,7.2424,-70.7324,31.58,49,100,1.94,VE,1612639820
te anau,-45.4167,167.7167,11.5,82,20,0.42,NZ,1612639713
penzance,50.1186,-5.5371,5.0,81,75,7.2,GB,1612639589
codrington,-38.2667,141.9667,14.4,79,98,6.31,AU,1612639733
san patricio,28.017,-97.5169,22.0,73,90,4.63,US,1612639824
vestmanna,62.1564,-7.1664,1.0,64,40,9.77,FO,1612639825
kavaratti,10.5669,72.642,27.22,65,0,4.47,IN,1612639786
susehri,40.1644,38.0867,1.96,80,4,0.74,TR,1612639828
broome,42.2506,-75.833,0.56,31,1,7.72,US,1612639559
bilibino,68.0546,166.4372,-22.82,81,0,1.15,RU,1612639831
thanh hoa,19.8,105.7667,17.53,93,0,0.93,VN,1612639832
saint anthony,45.0205,-93.218,-17.0,55,75,6.17,US,1612639834
duldurga,50.6761,113.5931,-22.04,87,33,1.51,RU,1612639835
wonthaggi,-38.6044,145.5913,15.0,90,93,7.38,AU,1612639836
ahipara,-35.1667,173.1667,15.56,85,87,2.43,NZ,1612639571
tuatapere,-46.1333,167.6833,12.22,82,2,1.7,NZ,1612639553
guadalupe victoria,32.2869,-115.105,23.33,20,1,2.57,MX,1612639839
port hardy,50.6996,-127.4199,6.0,93,75,3.6,CA,1612639800
rawson,-43.3002,-65.1023,18.1,58,100,11.26,AR,1612639685
mbanza-ngungu,-5.25,14.8667,21.45,95,92,1.47,CD,1612639842
batticaloa,7.7102,81.6924,25.04,87,21,4.88,LK,1612639844
farafenni,13.5667,-15.6,25.82,23,100,4.69,GM,1612639845
iquitos,-3.7481,-73.2472,30.0,70,75,1.54,PE,1612639846
natitingou,10.3042,1.3796,32.0,13,16,1.03,BJ,1612639847
rundu,-17.9333,19.7667,21.9,82,100,1.96,NA,1612639848
natal,-5.795,-35.2094,31.0,62,40,5.14,BR,1612639764
aquiraz,-3.9014,-38.3911,30.0,62,20,5.66,BR,1612639850
sur,22.5667,59.5289,17.25,62,0,2.62,OM,1612639851
ostrovnoy,68.0531,39.5131,-12.04,93,100,4.42,RU,1612639663
mafinga,-7.25,35.0667,20.73,87,100,1.24,TZ,1612639854
kaitangata,-46.2817,169.8464,13.54,80,2,1.52,NZ,1612639855
mayumba,-3.432,10.6554,26.84,80,100,1.08,GA,1612639856
krasnoselkup,65.7,82.4667,-21.24,91,100,6.22,RU,1612639857
midrand,-25.9636,28.1378,17.22,76,100,0.89,ZA,1612639858
kaeo,-35.1,173.7833,16.11,92,100,0.89,NZ,1612639859
tekeli,44.83,78.8239,3.22,70,100,3.8,KZ,1612639860
yazman,29.1212,71.7446,15.86,32,0,3.33,PK,1612639861
cabadiangan,9.7531,122.4739,24.0,83,85,3.3,PH,1612639863
mishelevka,52.8575,103.1719,-15.42,90,96,2.04,RU,1612639864
kidal,18.4411,1.4078,23.75,17,43,4.31,ML,1612639865
wilmington,34.2257,-77.9447,11.0,43,90,4.12,US,1612639714
vardo,70.3705,31.1107,-4.0,74,40,10.29,NO,1612639867
san carlos,9.6612,-68.5827,32.75,40,98,1.09,VE,1612639868
sisimiut,66.9395,-53.6735,-5.99,78,35,5.91,GL,1612639869
lagunas,-5.2269,-75.6753,28.02,75,99,0.93,PE,1612639870
pierre,44.3683,-100.351,-16.0,47,1,4.63,US,1612639774
beringovskiy,63.05,179.3167,-23.19,89,3,3.86,RU,1612639873
praia da vitoria,38.7333,-27.0667,16.0,88,40,5.09,PT,1612639874
kirensk,57.7853,108.1119,-15.13,93,100,2.06,RU,1612639580
auxerre,47.8,3.5667,8.33,94,100,1.25,FR,1612639876
moose factory,51.2585,-80.6094,-17.0,60,90,8.23,CA,1612639877
saint-pierre,-21.3393,55.4781,26.0,83,75,1.54,RE,1612639878
souillac,-20.5167,57.5167,26.0,83,20,1.54,MU,1612639880
paciran,-6.8767,112.3761,25.34,88,5,4.68,ID,1612639882
kazerun,29.6195,51.6541,14.11,58,37,2.56,IR,1612639883
south yuba city,39.1166,-121.6391,15.0,62,1,2.06,US,1612639641
vila velha,-20.3297,-40.2925,30.0,66,20,5.66,BR,1612639885
port macquarie,-31.4333,152.9167,21.0,100,90,2.57,AU,1612639886
terrace bay,48.7834,-87.1,-17.0,60,75,4.63,CA,1612639887
mykolayivka,47.5414,30.7561,-4.79,94,100,2.79,UA,1612639889
balakhninskiy,58.0106,114.2769,-19.48,88,100,1.09,RU,1612639891
lata,40.1629,-8.3327,11.67,79,66,1.79,PT,1612639892
treinta y tres,-33.2333,-54.3833,28.76,44,0,4.01,UY,1612639893
rudnya,54.947,31.0934,-17.84,93,90,3.61,RU,1612639894
naze,28.3667,129.4833,15.97,81,98,3.65,JP,1612639611
novo aripuana,-5.1206,-60.3797,27.77,89,99,0.67,BR,1612639896
carbonear,47.7332,-53.2148,2.78,93,90,7.72,CA,1612639897
ialibu,-6.2821,143.9935,13.75,95,96,0.65,PG,1612639898
guilin,25.2819,110.2864,11.0,100,0,1.67,CN,1612639899
pangody,65.85,74.4859,-30.78,86,47,5.76,RU,1612639665
kismayo,-0.3582,42.5454,24.98,83,68,6.58,SO,1612639902
begowal,31.6167,75.5167,11.0,82,0,0.51,IN,1612639903
semey,50.4111,80.2275,-2.81,91,32,10.25,KZ,1612639904
diu,20.7141,70.9822,19.74,30,3,5.71,IN,1612639905
patan,27.6667,85.3333,4.0,100,20,0.74,NP,1612639906
elizabeth city,36.2946,-76.2511,12.22,50,1,3.09,US,1612639907
acari,-15.4311,-74.6158,26.84,53,88,4.7,PE,1612639908
ocho rios,18.4025,-77.1048,30.56,77,9,6.26,JM,1612639911
mutis,6.2262,-77.4044,28.22,75,100,2.54,CO,1612639912
niamey,13.5137,2.1098,30.0,10,98,1.54,NE,1612639913
baruun-urt,46.6806,113.2792,-22.9,84,0,3.67,MN,1612639914
mount pleasant,32.7941,-79.8626,10.56,81,90,6.7,US,1612639907
mindelo,16.8901,-24.9804,21.0,56,75,12.35,CV,1612639884
maldonado,-34.6667,-54.9167,27.0,54,20,9.77,UY,1612639917
mareeba,-17.0,145.4333,26.0,89,75,0.76,AU,1612639918
oil city,41.4339,-79.7064,-2.0,40,1,7.72,US,1612639668
nokia,61.4667,23.5,-16.0,85,0,0.51,FI,1612639746
anito,12.4497,125.2886,25.24,90,52,5.24,PH,1612639922
basco,20.4487,121.9702,23.28,89,100,8.72,PH,1612639923
haines junction,60.7522,-137.5108,-30.0,63,98,0.27,CA,1612639924
baripada,21.935,86.7214,16.09,76,48,2.47,IN,1612639925
fonte boa,-2.4959,-66.2662,27.66,90,77,1.17,BR,1612639926
yelizovo,53.1873,158.3805,-4.0,63,100,11.0,RU,1612639927
saldanha,-33.0117,17.9442,20.0,77,0,5.66,ZA,1612639928
salalah,17.0151,54.0924,24.0,69,40,3.6,OM,1612639696
kerouane,9.2667,-9.0167,28.25,19,100,1.61,GN,1612639931
axim,4.8699,-2.2405,26.87,86,0,4.27,GH,1612639932
palmas,-10.2128,-48.3603,26.0,83,75,2.57,BR,1612639933
paamiut,61.994,-49.6678,-5.56,82,0,3.63,GL,1612639934
haapiti,-17.5667,-149.8667,25.0,78,75,5.66,PF,1612639935
trussville,33.6198,-86.6089,5.56,78,100,1.34,US,1612639802
miguel hidalgo,19.4225,-99.2028,26.0,8,1,2.57,MX,1612639937
newport,51.5877,-2.9984,3.89,91,0,0.45,GB,1612639799
ketchikan,55.3422,-131.6461,2.0,100,90,2.07,US,1612639939
sao joao da barra,-21.6403,-41.0511,23.0,88,75,6.17,BR,1612639941
mendi,-6.1761,143.6513,13.02,96,94,1.1,PG,1612639942
ajdovscina,45.886,13.9095,9.44,91,100,1.42,SI,1612639943
warrnambool,-38.3833,142.4833,13.33,95,94,6.23,AU,1612639944
arai,37.0167,138.25,0.0,82,41,2.49,JP,1612639945
stity,49.9612,16.7658,-3.89,88,100,0.89,CZ,1612639946
adrar,20.5022,-10.0711,17.89,29,100,4.78,MR,1612639677
tazovskiy,67.4667,78.7,-31.73,86,83,4.71,RU,1612639951
salinopolis,-0.6136,-47.3561,28.17,76,11,4.78,BR,1612639952
miri,4.4148,114.0089,25.0,100,40,1.03,MY,1612639851
goure,13.9835,10.2704,20.57,20,37,4.86,NE,1612639955
kahului,20.8947,-156.47,21.67,68,20,1.34,US,1612639956
kloulklubed,7.0419,134.2556,25.15,93,100,6.17,PW,1612639957
makinsk,52.6292,70.4169,0.02,98,100,9.19,KZ,1612639958
gornopravdinsk,60.05,69.9,1.44,96,100,5.37,RU,1612639959
rach gia,10.0167,105.0833,23.0,100,20,1.03,VN,1612639961
kaputa,-8.4689,29.6619,21.98,83,100,2.37,ZM,1612639962
qeshm,26.9581,56.2719,20.0,88,0,3.09,IR,1612639963
flinders,-34.5833,150.8552,17.78,85,0,0.89,AU,1612639964
nasturelu,43.6667,25.4667,5.56,93,100,1.34,RO,1612639965
jerantut,3.936,102.3626,21.2,92,84,0.75,MY,1612639966
cayenne,4.9333,-52.3333,26.0,94,90,3.6,GF,1612639968
taoudenni,22.6783,-3.9836,19.7,25,17,5.2,ML,1612639970
isangel,-19.55,169.2667,24.0,94,20,1.13,VU,1612639813
isla vista,34.4133,-119.861,20.0,59,1,2.06,US,1612639972
bloemfontein,-29.1211,26.214,20.0,73,22,3.09,ZA,1612639973
poddorye,57.4695,31.1156,-13.92,94,100,3.3,RU,1612639974
ballina,-28.8667,153.5667,22.0,88,90,1.03,AU,1612639868
iqaluit,63.7506,-68.5145,-4.0,86,90,7.2,CA,1612639976
wucheng,29.6008,118.175,8.89,84,0,0.33,CN,1612639977
bayana,26.9,77.2833,11.16,45,0,2.52,IN,1612639978
soka,35.8203,139.8044,8.89,65,0,2.06,JP,1612639968
kamenka,51.3223,42.7678,-10.0,81,100,5.53,RU,1612639981
nisia floresta,-6.0911,-35.2086,31.0,62,40,5.14,BR,1612639800
aksarka,66.5606,67.7975,-37.05,81,95,8.85,RU,1612639824
walvis bay,-22.9575,14.5053,18.0,82,0,3.6,NA,1612639984
santiago del estero,-27.7951,-64.2615,33.33,35,0,1.79,AR,1612639985
ambon,-3.6954,128.1814,25.0,88,40,2.57,ID,1612639986
alofi,-19.0595,-169.9187,26.0,94,100,3.09,NU,1612639987
nome,64.5011,-165.4064,-9.0,86,90,0.81,US,1612639988
kedrovyy,56.1667,91.8167,-3.0,68,0,5.0,RU,1612639989
sistranda,63.7256,8.834,-5.0,80,75,6.17,NO,1612639991
udachnyy,66.4167,112.4,-37.9,80,0,2.32,RU,1612639992
romans-sur-isere,45.0464,5.0562,12.0,82,90,4.12,FR,1612639993
susuman,62.7833,148.1667,-33.47,82,17,0.55,RU,1612639994
matay,28.419,30.7792,14.42,60,0,2.85,EG,1612639995
riyadh,24.6877,46.7219,17.0,59,40,3.09,SA,1612639851
predesti,44.35,23.6,5.56,100,90,5.66,RO,1612639997
nagato,34.3833,131.2,11.0,66,20,2.06,JP,1612639998
portland,45.5234,-122.6762,8.0,71,90,3.09,US,1612639849
high level,58.5169,-117.136,-32.0,75,1,1.03,CA,1612640001
saraland,30.8207,-88.0706,10.56,96,95,0.89,US,1612640002
korla,41.7597,86.1469,-2.35,84,0,1.64,CN,1612639980
lock haven,41.137,-77.4469,1.67,86,0,5.36,US,1612640004
sheboygan,43.7333,-87.9334,-12.78,66,75,5.66,US,1612639825
matamoros,25.5333,-103.25,25.0,11,1,5.11,MX,1612640006
namtsy,62.7161,129.6658,-43.0,66,89,2.0,RU,1612640007
ixtapa,20.7,-105.2,27.0,57,20,2.06,MX,1612640008
haicheng,40.8516,122.7475,-7.39,89,0,4.36,CN,1612640009
humberto de campos,-2.5983,-43.4611,29.55,63,96,3.86,BR,1612640010
scalea,39.813,15.7956,10.56,92,72,2.98,IT,1612640012
vanimo,-2.6741,141.3028,24.93,87,94,2.05,PG,1612639850
paracatu,-17.2222,-46.8747,25.05,89,100,1.1,BR,1612640014
whitehorse,60.7161,-135.0538,-23.89,76,75,1.03,CA,1612639809
raufoss,60.7264,10.6172,-14.44,90,0,1.41,NO,1612640016
casillas,14.4222,-90.2442,25.0,44,0,6.17,GT,1612640017
una,20.8167,71.0333,19.28,28,3,5.53,IN,1612640018
pozo colorado,-23.4923,-58.7972,31.24,32,0,3.63,PY,1612640019
halifax,44.6453,-63.5724,7.22,57,64,11.32,CA,1612639890
vila franca do campo,37.7167,-25.4333,15.56,94,75,6.17,PT,1612639903
shakawe,-18.3667,21.85,21.68,88,100,2.18,BW,1612640023
kusa,55.3383,59.4406,-14.76,92,100,7.78,RU,1612639941
palaikastron,35.2,26.25,13.89,85,0,1.83,GR,1612640025
sarana,56.4773,57.7259,-11.01,93,100,6.61,RU,1612640026
dandong,40.1292,124.3947,-4.87,92,92,3.22,CN,1612639829
port lincoln,-34.7333,135.8667,16.04,75,71,4.98,AU,1612640028
christchurch,-43.5333,172.6333,16.11,82,75,3.09,NZ,1612639822
zigos,41.0167,24.3833,12.22,93,75,0.21,GR,1612640031
opotiki,-38.0833,177.2833,14.44,77,89,2.24,NZ,1612640032
boden,65.8252,21.6886,-12.0,92,0,5.14,SE,1612640033
eyl,7.9803,49.8164,24.27,82,10,6.3,SO,1612639768
baherden,38.4362,57.4316,10.54,70,100,3.93,TM,1612640035
san vicente,-26.6167,-54.1333,26.53,36,0,2.91,AR,1612640036
grand island,40.925,-98.342,-11.11,67,90,7.2,US,1612640037
chicama,-7.8447,-79.1469,21.0,88,90,3.09,PE,1612640038
mwinilunga,-11.7358,24.4293,17.9,93,83,1.37,ZM,1612640039
vikindu,-7.0067,39.2985,28.0,78,40,5.66,TZ,1612640041
kjopsvik,68.097,16.3742,-2.22,74,90,1.54,NO,1612640042
college,64.8569,-147.8028,-22.22,77,90,1.54,US,1612639989
liverpool,53.4106,-2.9779,5.0,87,75,8.23,GB,1612639846
khoy,38.5504,44.9535,2.4,78,53,0.94,IR,1612640045
saint-francois,46.4154,3.9054,8.89,100,0,2.57,FR,1612640046
kendari,-3.945,122.4989,24.52,91,100,1.07,ID,1612640047
merauke,-8.4667,140.3333,26.52,84,100,6.06,ID,1612640048
honiara,-9.4333,159.95,25.1,87,100,2.9,SB,1612640049
ponta delgada,37.7333,-25.6667,15.56,94,75,6.17,PT,1612640051
basoko,1.2391,23.616,25.04,58,22,0.75,CD,1612640052
liwale,-9.7667,37.9333,22.1,98,100,1.31,TZ,1612640045
coihaique,-45.5752,-72.0662,25.0,33,75,2.06,CL,1612640054
coahuayana,18.7333,-103.6833,25.0,57,1,3.24,MX,1612639952
solnechnyy,50.7214,136.6319,-20.84,89,100,1.41,RU,1612640056
conceicao do araguaia,-8.2578,-49.2647,26.89,86,94,2.02,BR,1612639974
ikalamavony,-21.15,46.5833,21.9,80,100,0.76,MG,1612640058
tongliao,43.6125,122.2653,-17.75,88,0,4.02,CN,1612640059
cap-aux-meules,47.3821,-61.8597,2.0,93,94,10.29,CA,1612640061
chara,56.9064,118.2631,-26.07,73,100,0.28,RU,1612640063
north platte,41.1239,-100.7654,-11.0,67,90,3.09,US,1612639876
gimli,50.6336,-96.9907,-26.0,53,99,5.14,CA,1612640066
proddatur,14.7333,78.55,19.37,69,2,2.16,IN,1612640067
maarianhamina,60.0973,19.9348,-10.0,100,98,2.57,AX,1612640068
west bay,19.3667,-81.4167,30.0,70,40,6.69,KY,1612640069
nishihara,26.1842,127.7558,19.0,88,40,1.54,JP,1612640071
chumphon,10.3333,98.8333,20.27,100,56,1.17,TH,1612640072
marataizes,-21.0433,-40.8244,24.17,89,100,3.88,BR,1612640073
panacan,9.2463,118.4082,25.0,88,20,2.06,PH,1612640074
mumbwa,-14.9783,27.0619,19.42,94,100,1.44,ZM,1612640075
stornoway,58.2093,-6.3865,3.0,70,40,10.29,GB,1612640076
griffith,41.5284,-87.4237,-8.89,53,40,3.6,US,1612640077
tambo,-14.8,-73.9167,8.76,84,79,3.43,PE,1612640078
keflavik,64.0049,-22.5624,2.0,64,40,8.23,IS,1612640079
nouadhibou,20.931,-17.0347,19.0,59,0,8.23,MR,1612640081
acarau,-2.8856,-40.12,28.74,67,60,6.89,BR,1612640022
turan,16.0678,108.2208,21.0,88,75,1.03,VN,1612640083
don benito,38.9563,-5.8616,8.89,95,98,1.34,ES,1612640084
yarim,14.298,44.3779,10.11,55,0,1.15,YE,1612640085
umm lajj,25.0213,37.2685,22.19,52,0,5.48,SA,1612640086
agadir,30.4202,-9.5982,13.0,76,20,6.17,MA,1612640047
tura,25.5198,90.2201,14.02,66,100,0.72,IN,1612640088
oksfjord,70.2396,22.3479,-3.0,80,40,6.69,NO,1612640089
kiama,-34.6833,150.8667,17.78,85,0,0.89,AU,1612640091
sakakah,29.9697,40.2064,10.0,71,0,4.12,SA,1612640092
corridonia,43.2511,13.5088,10.56,94,59,0.45,IT,1612640093
fairbanks,64.8378,-147.7164,-22.22,77,90,0.6,US,1612640094
wuchang,44.9143,127.15,-24.28,90,0,1.84,CN,1612640095
nanakuli,21.3906,-158.1547,23.0,56,75,0.51,US,1612640096
rancho palos verdes,33.7445,-118.387,18.33,45,1,3.1,US,1612640097
havre-saint-pierre,50.2334,-63.5986,0.0,93,90,4.12,CA,1612640099
lensk,60.7253,114.9278,-20.39,89,78,1.47,RU,1612640101
gorontalo,0.5412,123.0595,23.84,87,100,1.48,ID,1612639939
channarayapatna,12.9044,76.3917,18.04,56,0,4.38,IN,1612640104
grand baie,-20.0182,57.5802,26.67,80,0,1.34,MU,1612640105
inhambane,-23.865,35.3833,27.78,78,20,2.06,MZ,1612640106
camopi,3.1655,-52.3158,22.26,97,100,1.42,GF,1612640107
kodinsk,58.6881,99.1844,-10.98,95,100,2.66,RU,1612640108
belawan,3.7755,98.6832,26.0,94,40,1.03,ID,1612640109
shimoda,34.6667,138.95,9.43,55,0,4.44,JP,1612640111
